stop_id,stop_code,stop_name,stop_desc,stop_lat,stop_lon,stop_elevation,zone_id,stop_url,location_type,parent_station,platform_code,ch_station_long_name,ch_station_synonym1,ch_station_synonym2,ch_station_synonym3,ch_station_synonym4
8504012:1,PUI,Puidoux-Chexbres,,46.493833,6.765686,618,,,0,8504012,1,,,,,
8504208:2,BDR,Boudry,,46.959445,6.835046,491,,,0,8504208,2,,Boudry CFF,Boudry SBB,,
8504208:3,BDR,Boudry,,46.959445,6.835046,491,,,0,8504208,3,,Boudry CFF,Boudry SBB,,
8501115:1,COS,Cossonay-Penthalaz,,46.606003,6.523683,428,,,0,8501115,1,,,,,
8501115:2,COS,Cossonay-Penthalaz,,46.606003,6.523683,428,,,0,8501115,2,,,,,
8504185:2,CRFR,Cressier FR,,46.900180,7.149715,540,,,0,8504185,2,,,,,
8501500:2,MA,Martigny,,46.105828,7.079122,467,,,0,8501500,2,,,,,
8501500:3,MA,Martigny,,46.105828,7.079122,467,,,0,8501500,3,,,,,
8501500:1,MA,Martigny,,46.105828,7.079122,467,,,0,8501500,1,,,,,
8504132:1,EST,Estavayer-le-Lac,,46.844497,6.842958,463,,,0,8504132,1,,,,,
8504100:5AB,FRI,Fribourg/Freiburg,,46.803268,7.151023,610,,,0,8504100,5AB,,Freiburg (CH),Fribourg,Friburgo,
8504201:3,GRS,Grandson,,46.806270,6.641936,436,,,0,8504201,3,,,,,
8504201:2,GRS,Grandson,,46.806270,6.641936,436,,,0,8504201,2,,,,,
8504201:1,GRS,Grandson,,46.806270,6.641936,436,,,0,8504201,1,,,,,
8501103:1,VAL,Vallorbe,,46.712398,6.370564,807,,,0,8501103,1,,,,,
8501103:3,VAL,Vallorbe,,46.712398,6.370564,807,,,0,8501103,3,,,,,
8501103:5,VAL,Vallorbe,,46.712398,6.370564,807,,,0,8501103,5,,,,,
8501103:4,VAL,Vallorbe,,46.712398,6.370564,807,,,0,8501103,4,,,,,
8500010:31,BS,Basel SBB,,47.547405,7.589551,277,,,0,8500010,31,,Basilea FFS,Basle SBB,Bâle CFF,
8500010:30,BS,Basel SBB,,47.547405,7.589551,277,,,0,8500010,30,,Basilea FFS,Basle SBB,Bâle CFF,
8500010:33,BS,Basel SBB,,47.547405,7.589551,277,,,0,8500010,33,,Basilea FFS,Basle SBB,Bâle CFF,
8500010:35,BS,Basel SBB,,47.547405,7.589551,277,,,0,8500010,35,,Basilea FFS,Basle SBB,Bâle CFF,
8508052:1,BNTI,Bern Tiefenau,,46.972743,7.450196,531,,,0,8508052,1,,,,,
8508052:2,BNTI,Bern Tiefenau,,46.972743,7.450196,531,,,0,8508052,2,,,,,
8500218:10D,OL,Olten,,47.351930,7.907688,396,,,0,8500218,10D,,,,,
8500218:10A,OL,Olten,,47.351930,7.907688,396,,,0,8500218,10A,,,,,
8501402:,BEX,Bex,,46.251460,7.000677,411,,,0,8501402,,,,,,
8501304:1,ROC,Roche VD,,46.358686,6.927049,380,,,0,8501304,1,,,,,
8501304:2,ROC,Roche VD,,46.358686,6.927049,380,,,0,8501304,2,,,,,
8504014:3,PAL,Palézieux,,46.542753,6.837877,669,,,0,8504014,3,,,,,
8504014:2,PAL,Palézieux,,46.542753,6.837877,669,,,0,8504014,2,,,,,
8504014:1,PAL,Palézieux,,46.542753,6.837877,669,,,0,8504014,1,,,,,
8518452:1,PRMA,Prilly-Malley,,46.526690,6.602629,430,,,0,8518452,1,,,,,
8518452:3,PRMA,Prilly-Malley,,46.526690,6.602629,430,,,0,8518452,3,,,,,
8518452:4,PRMA,Prilly-Malley,,46.526690,6.602629,430,,,0,8518452,4,,,,,
8501012:2,CRGD,Creux-de-Genthod,,46.263760,6.161320,386,,,0,8501012,2,,,,,
8501012:1,CRGD,Creux-de-Genthod,,46.263760,6.161320,386,,,0,8501012,1,,,,,
8507000:10,BN,Bern,,46.948825,7.439118,540,,,0,8507000,10,,Berna,Berne (CH),,
8507000:13,BN,Bern,,46.948825,7.439118,540,,,0,8507000,13,,Berna,Berne (CH),,
8507000:12,BN,Bern,,46.948825,7.439118,540,,,0,8507000,12,,Berna,Berne (CH),,
8504317:,COL,Le Locle-Col-des-Roches,,47.049879,6.726068,917,,,0,8504317,,,,,,
8530011,COED,Les Coeudres-Est,,47.028766,6.789469,1014,,,0,,,,,,,
8530012,PTME,Petit-Martel-Est,,47.013675,6.765242,1010,,,0,,,,,,,
8530263,YVWB,Yverdon William Barbey,,46.788845,6.631625,435,,,0,,,,,,,
8530335,AIGH,Aigle-Hôpital,,46.310468,6.966059,403,,,0,,,,,,,
8530366,PTR,Pont du Rhône,,46.276149,6.961791,391,,,0,,,,,,,
8530370,PTCX,Pont de Chemex,,46.245600,6.931110,687,,,0,,,,,,,
8530378,NEYS,Les Neys,,46.236018,6.924795,764,,,0,,,,,,,
8530430,RTEM,Route de Morgins,,46.231796,6.920272,767,,,0,,,,,,,
8530708,,"Neuchâtel, Evole",,46.989678,6.923374,433,,,0,,,,,,,
8530709,,"Neuchâtel, Champ-Bougin",,46.984555,6.912277,433,,,0,,,,,,,
8530710,,"Neuchâtel, Serrières Ruau",,46.980085,6.897087,433,,,0,,,,,,,
8530749,,"Renens VD, gare",,46.537482,6.578071,416,,,0,,,,,,,
8530811,ZUEB,Zürich Balgrist,,47.354578,8.575020,477,,,0,,,,,,,
8530812,ZUEH,Zürich Hegibachplatz,,47.361690,8.560623,435,,,0,,,,,,,
8530813,ZUEK,Zürich Kreuzplatz,,47.364875,8.554083,424,,,0,,,,,,,
8530832,,Pied du barrage,,46.065875,6.935292,1812,,,0,,,,,,,
8503016:4,ZFH,Zürich Flughafen,,47.450383,8.562386,430,,,0,8503016,4,,Zurich Airport,Zurigo Aeroporto,,
8504224:1,CRNE,Cressier NE,,47.051940,7.039526,436,,,0,8504224,1,,,,,
8504224:2,CRNE,Cressier NE,,47.051940,7.039526,436,,,0,8504224,2,,,,,
8501112:,CHV,Chavornay,,46.710077,6.568160,447,,,0,8501112,,,,,,
8500109:4,DMT,Delémont,,47.362001,7.350053,413,,,0,8500109,4,,Delsberg,,,
8500109:5,DMT,Delémont,,47.362001,7.350053,413,,,0,8500109,5,,Delsberg,,,
8500109:1,DMT,Delémont,,47.362001,7.350053,413,,,0,8500109,1,,Delsberg,,,
8500109:2,DMT,Delémont,,47.362001,7.350053,413,,,0,8500109,2,,Delsberg,,,
8500109:3,DMT,Delémont,,47.362001,7.350053,413,,,0,8500109,3,,Delsberg,,,
8501404:2,EV,Evionnaz,,46.169243,7.025526,449,,,0,8501404,2,,,,,
8500010:,BS,Basel SBB,,47.547405,7.589551,277,,,0,8500010,,,Basilea FFS,Basle SBB,Bâle CFF,
8503000:,ZUE,Zürich HB,,47.378177,8.540192,408,,,0,8503000,,,ZH,Zurich,Zurigo,Zürich
8506300:1,SGWI,St. Gallen Winkeln,,47.403926,9.300839,655,,,0,8506300,1,,,,,
8506300:2,SGWI,St. Gallen Winkeln,,47.403926,9.300839,655,,,0,8506300,2,,,,,
8508050:24,BRBS,Bern RBS,,46.949491,7.439710,534,,,0,8508050,24,,,,,
8508050:22,BRBS,Bern RBS,,46.949491,7.439710,534,,,0,8508050,22,,,,,
8508050:23,BRBS,Bern RBS,,46.949491,7.439710,534,,,0,8508050,23,,,,,
8508050:21,BRBS,Bern RBS,,46.949491,7.439710,534,,,0,8508050,21,,,,,
8505000:5B,LZ,Luzern,,47.050170,8.310170,436,,,0,8505000,5B,,Lucerna,Lucerne,,
8507082:2,BNAH,Bern  Europaplatz,,46.943441,7.407465,551,,,0,8507082,2,,Bern Europaplatz Süd,,,
8507082:1,BNAH,Bern  Europaplatz,,46.943441,7.407465,551,,,0,8507082,1,,Bern Europaplatz Süd,,,
8504100:3CD,FRI,Fribourg/Freiburg,,46.803268,7.151023,610,,,0,8504100,3CD,,Freiburg (CH),Fribourg,Friburgo,
8504495:2,BNST,Bern Stöckacker,,46.946354,7.401172,551,,,0,8504495,2,,,,,
8504495:1,BNST,Bern Stöckacker,,46.946354,7.401172,551,,,0,8504495,1,,,,,
8507000:,BN,Bern,,46.948825,7.439118,540,,,0,8507000,,,Berna,Berne (CH),,
8504086:6,BUL,Bulle,,46.618189,7.055037,771,,,0,8504086,6,,,,,
8504086:4,BUL,Bulle,,46.618189,7.055037,771,,,0,8504086,4,,,,,
8504086:5,BUL,Bulle,,46.618189,7.055037,771,,,0,8504086,5,,,,,
8500218:11,OL,Olten,,47.351930,7.907688,396,,,0,8500218,11,,,,,
8500218:10,OL,Olten,,47.351930,7.907688,396,,,0,8500218,10,,,,,
8500218:12,OL,Olten,,47.351930,7.907688,396,,,0,8500218,12,,,,,
8501300:4,MX,Montreux,,46.435875,6.910432,395,,,0,8501300,4,,MX,,,
8501300:5,MX,Montreux,,46.435875,6.910432,395,,,0,8501300,5,,MX,,,
8501300:6,MX,Montreux,,46.435875,6.910432,395,,,0,8501300,6,,MX,,,
8501300:7,MX,Montreux,,46.435875,6.910432,395,,,0,8501300,7,,MX,,,
8501300:1,MX,Montreux,,46.435875,6.910432,395,,,0,8501300,1,,MX,,,
8501300:3,MX,Montreux,,46.435875,6.910432,395,,,0,8501300,3,,MX,,,
8501300:8,MX,Montreux,,46.435875,6.910432,395,,,0,8501300,8,,MX,,,
8503000:I1,ZUE,Zürich HB,,47.378177,8.540192,408,,,0,8503000,I1,,ZH,Zurich,Zurigo,Zürich
8503000:I2,ZUE,Zürich HB,,47.378177,8.540192,408,,,0,8503000,I2,,ZH,Zurich,Zurigo,Zürich
8501116:2,VU,Vufflens-la-Ville,,46.576237,6.530762,406,,,0,8501116,2,,,,,
8501116:1,VU,Vufflens-la-Ville,,46.576237,6.530762,406,,,0,8501116,1,,,,,
8500125:2,CG,Courgenay,,47.405218,7.124191,488,,,0,8500125,2,,,,,
8500125:1,CG,Courgenay,,47.405218,7.124191,488,,,0,8500125,1,,,,,
8504221:1CD,NE,Neuchâtel,,46.996723,6.935705,479,,,0,8504221,1CD,,NE,Neuenburg (CH),,
8504134:,PAY,Payerne,,46.819639,6.939879,452,,,0,8504134,,,,,,
8501048:1,LON,Lonay-Préverenges,,46.523123,6.519546,387,,,0,8501048,1,,,,,
8503003:2,ZSTH,Zürich Stadelhofen,,47.366611,8.548466,411,,,0,8503003,2,,ZSTH,,,
8503003:3,ZSTH,Zürich Stadelhofen,,47.366611,8.548466,411,,,0,8503003,3,,ZSTH,,,
8503003:1,ZSTH,Zürich Stadelhofen,,47.366611,8.548466,411,,,0,8503003,1,,ZSTH,,,
8500016:8,BSSJ,Basel St. Johann,,47.570296,7.572512,266,,,0,8500016,8,,,,,
8500016:7,BSSJ,Basel St. Johann,,47.570296,7.572512,266,,,0,8500016,7,,,,,
8501008:8,GE,Genève,,46.210203,6.142452,391,,,0,8501008,8,,Geneva,Genf,Ginevra,
8501008:3,GE,Genève,,46.210203,6.142452,391,,,0,8501008,3,,Geneva,Genf,Ginevra,
8501008:2,GE,Genève,,46.210203,6.142452,391,,,0,8501008,2,,Geneva,Genf,Ginevra,
8501008:1,GE,Genève,,46.210203,6.142452,391,,,0,8501008,1,,Geneva,Genf,Ginevra,
8501008:7,GE,Genève,,46.210203,6.142452,391,,,0,8501008,7,,Geneva,Genf,Ginevra,
8501008:6,GE,Genève,,46.210203,6.142452,391,,,0,8501008,6,,Geneva,Genf,Ginevra,
8501008:5,GE,Genève,,46.210203,6.142452,391,,,0,8501008,5,,Geneva,Genf,Ginevra,
8501008:4,GE,Genève,,46.210203,6.142452,391,,,0,8501008,4,,Geneva,Genf,Ginevra,
8500010:7AB,BS,Basel SBB,,47.547405,7.589551,277,,,0,8500010,7AB,,Basilea FFS,Basle SBB,Bâle CFF,
8503010:2,ZEN,Zürich Enge,,47.364099,8.530805,409,,,0,8503010,2,,ZEN,,,
8503010:1,ZEN,Zürich Enge,,47.364099,8.530805,409,,,0,8503010,1,,ZEN,,,
8501159:13,BRA,Le Brassus,,46.585781,6.214291,1022,,,0,8501159,13,,,,,
8501114:1,ECL,Eclépens,,46.657185,6.552420,455,,,0,8501114,1,,,,,
8501114:2,ECL,Eclépens,,46.657185,6.552420,455,,,0,8501114,2,,,,,
8504221:5AB,NE,Neuchâtel,,46.996723,6.935705,479,,,0,8504221,5AB,,NE,Neuenburg (CH),,
8504489:2,BNBZ,Bern Bümpliz Nord,,46.945828,7.389745,555,,,0,8504489,2,,,,,
8504489:5,BNBZ,Bern Bümpliz Nord,,46.945828,7.389745,555,,,0,8504489,5,,,,,
8504489:4,BNBZ,Bern Bümpliz Nord,,46.945828,7.389745,555,,,0,8504489,4,,,,,
8501120:,LS,Lausanne,,46.516779,6.629093,447,,,0,8501120,,,LS,Losanna,,
8504014:2AB,PAL,Palézieux,,46.542753,6.837877,669,,,0,8504014,2AB,,,,,
8504200:3AB,YV,Yverdon-les-Bains,,46.781877,6.641145,435,,,0,8504200,3AB,,Yverdon,,,
8504215:1,TR,Travers,,46.942405,6.676560,748,,,0,8504215,1,,,,,
8504215:2,TR,Travers,,46.942405,6.676560,748,,,0,8504215,2,,,,,
8501001:1,LP,La Plaine,,46.178660,5.999996,356,,,0,8501001,1,,,,,
8505000:4CD,LZ,Luzern,,47.050170,8.310170,436,,,0,8505000,4CD,,Lucerna,Lucerne,,
8501400:13/14,AIG,Aigle,,46.316845,6.963680,404,,,0,8501400,13/14,,,,,
8503205:4,AU,Au ZH,,47.246817,8.643708,410,,,0,8503205,4,,,,,
8503205:3,AU,Au ZH,,47.246817,8.643708,410,,,0,8503205,3,,,,,
8500218:10BC,OL,Olten,,47.351930,7.907688,396,,,0,8500218,10BC,,,,,
8504200:B3,YV,Yverdon-les-Bains,,46.781877,6.641145,435,,,0,8504200,B3,,Yverdon,,,
8501501:2,CHAR,Charrat-Fully,,46.126803,7.126477,461,,,0,8501501,2,,,,,
8501501:1,CHAR,Charrat-Fully,,46.126803,7.126477,461,,,0,8501501,1,,,,,
8503015:2,ZWIP,Zürich Wipkingen,,47.393032,8.529359,425,,,0,8503015,2,,ZWIP,,,
8503015:1,ZWIP,Zürich Wipkingen,,47.393032,8.529359,425,,,0,8503015,1,,ZWIP,,,
8503001:2,ZAS,Zürich Altstetten,,47.391481,8.488940,399,,,0,8503001,2,,West Link,ZAS,,
8503001:3,ZAS,Zürich Altstetten,,47.391481,8.488940,399,,,0,8503001,3,,West Link,ZAS,,
8503001:4,ZAS,Zürich Altstetten,,47.391481,8.488940,399,,,0,8503001,4,,West Link,ZAS,,
8503001:6,ZAS,Zürich Altstetten,,47.391481,8.488940,399,,,0,8503001,6,,West Link,ZAS,,
8503001:7,ZAS,Zürich Altstetten,,47.391481,8.488940,399,,,0,8503001,7,,West Link,ZAS,,
8504123:1,CN,Corcelles-Nord,,46.835253,6.960287,448,,,0,8504123,1,,,,,
8504133:1,CGY,Cugy FR,,46.816024,6.889162,469,,,0,8504133,1,,,,,
8500010:9,BS,Basel SBB,,47.547405,7.589551,277,,,0,8500010,9,,Basilea FFS,Basle SBB,Bâle CFF,
8500010:8,BS,Basel SBB,,47.547405,7.589551,277,,,0,8500010,8,,Basilea FFS,Basle SBB,Bâle CFF,
8500010:3,BS,Basel SBB,,47.547405,7.589551,277,,,0,8500010,3,,Basilea FFS,Basle SBB,Bâle CFF,
8500010:2,BS,Basel SBB,,47.547405,7.589551,277,,,0,8500010,2,,Basilea FFS,Basle SBB,Bâle CFF,
8500010:1,BS,Basel SBB,,47.547405,7.589551,277,,,0,8500010,1,,Basilea FFS,Basle SBB,Bâle CFF,
8500010:7,BS,Basel SBB,,47.547405,7.589551,277,,,0,8500010,7,,Basilea FFS,Basle SBB,Bâle CFF,
8500010:6,BS,Basel SBB,,47.547405,7.589551,277,,,0,8500010,6,,Basilea FFS,Basle SBB,Bâle CFF,
8500010:5,BS,Basel SBB,,47.547405,7.589551,277,,,0,8500010,5,,Basilea FFS,Basle SBB,Bâle CFF,
8500010:4,BS,Basel SBB,,47.547405,7.589551,277,,,0,8500010,4,,Basilea FFS,Basle SBB,Bâle CFF,
8501506:1,SIO,Sion,,46.227546,7.359191,491,,,0,8501506,1,,SIO,Sitten,,
8501506:2,SIO,Sion,,46.227546,7.359191,491,,,0,8501506,2,,SIO,Sitten,,
8501506:3,SIO,Sion,,46.227546,7.359191,491,,,0,8501506,3,,SIO,Sitten,,
8505300:1,LG,Lugano,,46.005506,8.946874,335,,,0,8505300,1,,LG,,,
8505300:2,LG,Lugano,,46.005506,8.946874,335,,,0,8505300,2,,LG,,,
8505300:3,LG,Lugano,,46.005506,8.946874,335,,,0,8505300,3,,LG,,,
8505300:4,LG,Lugano,,46.005506,8.946874,335,,,0,8505300,4,,LG,,,
8504014:11,PAL,Palézieux,,46.542753,6.837877,669,,,0,8504014,11,,,,,
8501117:,BY,Bussigny,,46.547580,6.551819,407,,,0,8501117,,,,,,
8508050:,BRBS,Bern RBS,,46.949491,7.439710,534,,,0,8508050,,,,,,
8504086:,BUL,Bulle,,46.618189,7.055037,771,,,0,8504086,,,,,,
8504100:4AB,FRI,Fribourg/Freiburg,,46.803268,7.151023,610,,,0,8504100,4AB,,Freiburg (CH),Fribourg,Friburgo,
8504100:,FRI,Fribourg/Freiburg,,46.803268,7.151023,610,,,0,8504100,,,Freiburg (CH),Fribourg,Friburgo,
8500010:7CD,BS,Basel SBB,,47.547405,7.589551,277,,,0,8500010,7CD,,Basilea FFS,Basle SBB,Bâle CFF,
8504023:3AB,ROM,Romont,,46.693502,6.911814,707,,,0,8504023,3AB,,,,,
8502113:6AB,AA,Aarau,,47.391356,8.051253,383,,,0,8502113,6AB,,,,,
8501003:1,SY,Satigny,,46.214221,6.037509,414,,,0,8501003,1,,,,,
8501003:2,SY,Satigny,,46.214221,6.037509,414,,,0,8501003,2,,,,,
8507000:12AB,BN,Bern,,46.948825,7.439118,540,,,0,8507000,12AB,,Berna,Berne (CH),,
8504014:3CD,PAL,Palézieux,,46.542753,6.837877,669,,,0,8504014,3CD,,,,,
8507000:1AB,BN,Bern,,46.948825,7.439118,540,,,0,8507000,1AB,,Berna,Berne (CH),,
8506392:4,SGHA,St. Gallen Haggen,,47.407835,9.338136,677,,,0,8506392,4,,,,,
8506392:3,SGHA,St. Gallen Haggen,,47.407835,9.338136,677,,,0,8506392,3,,,,,
8501428:1,STGI,St-Gingolph (Suisse),,46.391960,6.805890,390,,,0,8501428,1,,,,,
8501114:,ECL,Eclépens,,46.657185,6.552420,455,,,0,8501114,,,,,,
8504014:TPF1,PAL,Palézieux,,46.542753,6.837877,669,,,0,8504014,TPF1,,,,,
8500010:12,BS,Basel SBB,,47.547405,7.589551,277,,,0,8500010,12,,Basilea FFS,Basle SBB,Bâle CFF,
8500010:11,BS,Basel SBB,,47.547405,7.589551,277,,,0,8500010,11,,Basilea FFS,Basle SBB,Bâle CFF,
8500010:10,BS,Basel SBB,,47.547405,7.589551,277,,,0,8500010,10,,Basilea FFS,Basle SBB,Bâle CFF,
8500010:17,BS,Basel SBB,,47.547405,7.589551,277,,,0,8500010,17,,Basilea FFS,Basle SBB,Bâle CFF,
8500010:16,BS,Basel SBB,,47.547405,7.589551,277,,,0,8500010,16,,Basilea FFS,Basle SBB,Bâle CFF,
8500010:15,BS,Basel SBB,,47.547405,7.589551,277,,,0,8500010,15,,Basilea FFS,Basle SBB,Bâle CFF,
8500010:14,BS,Basel SBB,,47.547405,7.589551,277,,,0,8500010,14,,Basilea FFS,Basle SBB,Bâle CFF,
8504014:2CD,PAL,Palézieux,,46.542753,6.837877,669,,,0,8504014,2CD,,,,,
8500217:2,OLH,Olten Hammer,,47.348552,7.897706,403,,,0,8500217,2,,,,,
8500217:3,OLH,Olten Hammer,,47.348552,7.897706,403,,,0,8500217,3,,,,,
8504222:2,SBL,St-Blaise CFF,,47.014566,6.982108,464,,,0,8504222,2,,,,,
8504222:1,SBL,St-Blaise CFF,,47.014566,6.982108,464,,,0,8504222,1,,,,,
8501423:1,VIO,Vionnaz,,46.315025,6.916205,383,,,0,8501423,1,,,,,
8501507:1,SL,St-Léonard,,46.251483,7.419570,498,,,0,8501507,1,,,,,
8501118:,REN,Renens VD,,46.537029,6.578938,416,,,0,8501118,,,,,,
8500090:11,BAD,Basel Bad Bf,,47.568147,7.607284,263,,,0,8500090,11,,,,,
8500090:10,BAD,Basel Bad Bf,,47.568147,7.607284,263,,,0,8500090,10,,,,,
8501124:1,CU,Cully,,46.488551,6.727147,391,,,0,8501124,1,,,,,
8501124:2,CU,Cully,,46.488551,6.727147,391,,,0,8501124,2,,,,,
8504020:2,OR,Oron,,46.572534,6.837102,700,,,0,8504020,2,,,,,
8504020:1,OR,Oron,,46.572534,6.837102,700,,,0,8504020,1,,,,,
8504300:7,BI,Biel/Bienne,,47.132893,7.242908,437,,,0,8504300,7,,Biel,Bienne,,
8504300:6,BI,Biel/Bienne,,47.132893,7.242908,437,,,0,8504300,6,,Biel,Bienne,,
8504300:5,BI,Biel/Bienne,,47.132893,7.242908,437,,,0,8504300,5,,Biel,Bienne,,
8504300:4,BI,Biel/Bienne,,47.132893,7.242908,437,,,0,8504300,4,,Biel,Bienne,,
8504300:3,BI,Biel/Bienne,,47.132893,7.242908,437,,,0,8504300,3,,Biel,Bienne,,
8504300:2,BI,Biel/Bienne,,47.132893,7.242908,437,,,0,8504300,2,,Biel,Bienne,,
8504300:1,BI,Biel/Bienne,,47.132893,7.242908,437,,,0,8504300,1,,Biel,Bienne,,
8504300:9,BI,Biel/Bienne,,47.132893,7.242908,437,,,0,8504300,9,,Biel,Bienne,,
8507079:1,BNWE,Bern Weissenbühl,,46.935773,7.430018,550,,,0,8507079,1,,,,,
8507079:2,BNWE,Bern Weissenbühl,,46.935773,7.430018,550,,,0,8507079,2,,,,,
8503007:2,ZSEB,Zürich Seebach,,47.418747,8.544636,442,,,0,8503007,2,,ZSEB,,,
8503007:3,ZSEB,Zürich Seebach,,47.418747,8.544636,442,,,0,8503007,3,,ZSEB,,,
8504315:,CRET,Le Crêt-du-Locle,,47.077595,6.785177,1014,,,0,8504315,,,,,,
8301326,MIGP,Milano Greco Pirelli,,45.512893,9.214492,0,,,0,,,,,,,
8301640,MICE,Milano Certosa,,45.477029,9.095728,0,,,0,,,,,,,
8301645,MIGA,Milano Porta Garibaldi,,45.484437,9.187297,0,,,0,,,,,,,
8301666,MIVE,Milano Villapizzone,,45.500994,9.150655,0,,,0,,,,,,,
8301700,MICL,Milano Centrale,,45.486385,9.204714,120,,,0,,,,Mailand,Milan (I),Milano,
8501118:5,REN,Renens VD,,46.537029,6.578938,416,,,0,8501118,5,,,,,
8501118:4,REN,Renens VD,,46.537029,6.578938,416,,,0,8501118,4,,,,,
8501118:1,REN,Renens VD,,46.537029,6.578938,416,,,0,8501118,1,,,,,
8501118:3,REN,Renens VD,,46.537029,6.578938,416,,,0,8501118,3,,,,,
8501118:2,REN,Renens VD,,46.537029,6.578938,416,,,0,8501118,2,,,,,
8501509:2,SIE,Sierre/Siders,,46.292115,7.532830,534,,,0,8501509,2,,,,,
8503000:9,ZUE,Zürich HB,,47.378177,8.540192,408,,,0,8503000,9,,ZH,Zurich,Zurigo,Zürich
8503000:5,ZUE,Zürich HB,,47.378177,8.540192,408,,,0,8503000,5,,ZH,Zurich,Zurigo,Zürich
8503000:4,ZUE,Zürich HB,,47.378177,8.540192,408,,,0,8503000,4,,ZH,Zurich,Zurigo,Zürich
8503000:7,ZUE,Zürich HB,,47.378177,8.540192,408,,,0,8503000,7,,ZH,Zurich,Zurigo,Zürich
8503000:6,ZUE,Zürich HB,,47.378177,8.540192,408,,,0,8503000,6,,ZH,Zurich,Zurigo,Zürich
8503011:3,ZWIE,Zürich Wiedikon,,47.371472,8.523462,405,,,0,8503011,3,,ZWIE,,,
8503011:2,ZWIE,Zürich Wiedikon,,47.371472,8.523462,405,,,0,8503011,2,,ZWIE,,,
8503011:1,ZWIE,Zürich Wiedikon,,47.371472,8.523462,405,,,0,8503011,1,,ZWIE,,,
8501426:2,BOU,Bouveret,,46.385810,6.853241,374,,,0,8501426,2,,,,,
8501426:1,BOU,Bouveret,,46.385810,6.853241,374,,,0,8501426,1,,,,,
8503088:21,ZUSZ,Zürich HB SZU,,47.377431,8.539170,396,,,0,8503088,21,,,,,
8503088:22,ZUSZ,Zürich HB SZU,,47.377431,8.539170,396,,,0,8503088,22,,,,,
8501201:1,TOUR,La Tour-de-Peilz,,46.455444,6.859530,390,,,0,8501201,1,,,,,
8506302:1AB,SG,St. Gallen,,47.423180,9.369877,670,,,0,8506302,1AB,,Saint Gall,San Gallo,,
8504220:1,NESE,Neuchâtel-Serrières,,46.983955,6.903358,475,,,0,8504220,1,,,,,
8504220:2,NESE,Neuchâtel-Serrières,,46.983955,6.903358,475,,,0,8504220,2,,,,,
8501045:2,DEN,Denges-Echandens,,46.529121,6.540508,397,,,0,8501045,2,,,,,
8501045:3,DEN,Denges-Echandens,,46.529121,6.540508,397,,,0,8501045,3,,,,,
8501045:1,DEN,Denges-Echandens,,46.529121,6.540508,397,,,0,8501045,1,,,,,
8501689:4,ZERM,Zermatt,,46.024473,7.748296,1605,,,0,8501689,4,,ZERM,,,
8501421:1,MTH,Monthey,,46.255646,6.955228,406,,,0,8501421,1,,,,,
8501421:2,MTH,Monthey,,46.255646,6.955228,406,,,0,8501421,2,,,,,
8501500:40,MA,Martigny,,46.105828,7.079122,467,,,0,8501500,40,,,,,
8501402:Pl,BEX,Bex,,46.251460,7.000677,411,,,0,8501402,Pl,,,,,
8501122:2,LTY,Lutry,,46.503779,6.690611,402,,,0,8501122,2,,,,,
8503000:10,ZUE,Zürich HB,,47.378177,8.540192,408,,,0,8503000,10,,ZH,Zurich,Zurigo,Zürich
8508321:1,ALD,Luzern Allmend/Messe,,47.035083,8.303307,443,,,0,8508321,1,,,,,
8506301:1,SGBR,St. Gallen Bruggen,,47.407201,9.329645,651,,,0,8506301,1,,,,,
8516155:1,LAPR,Lancy-Pont-Rouge,,46.188898,6.125330,384,,,0,8516155,1,,,,,
8504310:,STI,St-Imier,,47.151699,7.001214,793,,,0,8504310,,,,,,
8501023:1,COP,Coppet,,46.317381,6.187832,394,,,0,8501023,1,,,,,
8579237,,"Lausanne, Ours",,46.521242,6.640677,533,,,0,,,,,,,
8579238,,"Lausanne, Sallaz",,46.532814,6.646189,607,,,0,,,,,,,
8579239,EPAC,"Epalinges, Croisettes",,46.542887,6.661465,714,,,0,,,,,,,
8501120:8,LS,Lausanne,,46.516779,6.629093,447,,,0,8501120,8,,LS,Losanna,,
8501120:9,LS,Lausanne,,46.516779,6.629093,447,,,0,8501120,9,,LS,Losanna,,
8501120:4,LS,Lausanne,,46.516779,6.629093,447,,,0,8501120,4,,LS,Losanna,,
8501120:7,LS,Lausanne,,46.516779,6.629093,447,,,0,8501120,7,,LS,Losanna,,
8501120:1,LS,Lausanne,,46.516779,6.629093,447,,,0,8501120,1,,LS,Losanna,,
8501120:3,LS,Lausanne,,46.516779,6.629093,447,,,0,8501120,3,,LS,Losanna,,
8503000:8,ZUE,Zürich HB,,47.378177,8.540192,408,,,0,8503000,8,,ZH,Zurich,Zurigo,Zürich
8503009:3,ZWOL,Zürich Wollishofen,,47.347440,8.533588,409,,,0,8503009,3,,ZWOL,,,
8504023:1A,ROM,Romont,,46.693502,6.911814,707,,,0,8504023,1A,,,,,
8504023:1B,ROM,Romont,,46.693502,6.911814,707,,,0,8504023,1B,,,,,
8505301:1,LGP,Lugano-Paradiso,,45.988951,8.946275,303,,,0,8505301,1,,Paradiso (Lugano),,,
8505301:2,LGP,Lugano-Paradiso,,45.988951,8.946275,303,,,0,8505301,2,,Paradiso (Lugano),,,
8507000:12A,BN,Bern,,46.948825,7.439118,540,,,0,8507000,12A,,Berna,Berne (CH),,
8507000:12C,BN,Bern,,46.948825,7.439118,540,,,0,8507000,12C,,Berna,Berne (CH),,
8501203:2,CL,Clarens,,46.442732,6.895777,400,,,0,8501203,2,,,,,
8501203:1,CL,Clarens,,46.442732,6.895777,400,,,0,8501203,1,,,,,
8503016:1,ZFH,Zürich Flughafen,,47.450383,8.562386,430,,,0,8503016,1,,Zurich Airport,Zurigo Aeroporto,,
8503016:2,ZFH,Zürich Flughafen,,47.450383,8.562386,430,,,0,8503016,2,,Zurich Airport,Zurigo Aeroporto,,
8503016:3,ZFH,Zürich Flughafen,,47.450383,8.562386,430,,,0,8503016,3,,Zurich Airport,Zurigo Aeroporto,,
8501035:3,ALL,Allaman,,46.475740,6.399703,422,,,0,8501035,3,,,,,
8501035:2,ALL,Allaman,,46.475740,6.399703,422,,,0,8501035,2,,,,,
8501035:1,ALL,Allaman,,46.475740,6.399703,422,,,0,8501035,1,,,,,
8501115:,COS,Cossonay-Penthalaz,,46.606003,6.523683,428,,,0,8501115,,,,,,
8504223:2,CORN,Cornaux,,47.038560,7.023363,435,,,0,8504223,2,,,,,
8504223:1,CORN,Cornaux,,47.038560,7.023363,435,,,0,8504223,1,,,,,
8588193,GRBG,Gryon Bois-Gentil,,46.277725,7.067564,1175,,,0,,,,,,,
8589523,,"Lausanne, Bessières",,46.520713,6.637075,514,,,0,,,,,,,
8590442,,"Lausanne, Riponne-M. Béjart",,46.522868,6.632664,501,,,0,,,,,,,
8504026:2,COT,Cottens,,46.751208,7.034796,712,,,0,8504026,2,,,,,
8592017,,"Lausanne, CHUV",,46.526403,6.641487,581,,,0,,,,,,,
8592028,,"Lausanne, Délices",,46.512022,6.628043,407,,,0,,,,,,,
8592048,,"Lausanne, Fourmi",,46.538812,6.651055,659,,,0,,,,,,,
8592050,LSGA,"Lausanne, gare",,46.517593,6.629667,455,,,0,,,,,,,
8592052,,"Lausanne, Grancy",,46.514924,6.628873,428,,,0,,,,,,,
8592061,,"Lausanne, Jordils",,46.509930,6.627436,394,,,0,,,,,,,
8592086,,"Lausanne, Ouchy-Olympique",,46.507469,6.626639,377,,,0,,,,,,,
8592128,,"Lausanne, Vennes",,46.541295,6.657616,691,,,0,,,,,,,
8592133,,"Lausanne, Vigie",,46.521537,6.623926,486,,,0,,,,,,,
8593773,LEBO,Les Bovets,,46.355460,7.141645,1156,,,0,,,,,,,
8593774,LAFA,La Faverge,,46.354926,7.147131,1147,,,0,,,,,,,
8593775,LENI,Les Nicolets,,46.354455,7.119552,1097,,,0,,,,,,,
8501201:2,TOUR,La Tour-de-Peilz,,46.455444,6.859530,390,,,0,8501201,2,,,,,
8504300:1AB,BI,Biel/Bienne,,47.132893,7.242908,437,,,0,8504300,1AB,,Biel,Bienne,,
8500109:1CD,DMT,Delémont,,47.362001,7.350053,413,,,0,8500109,1CD,,Delsberg,,,
8504000:1,PUN,Pully-Nord,,46.514670,6.657988,473,,,0,8504000,1,,,,,
8504000:2,PUN,Pully-Nord,,46.514670,6.657988,473,,,0,8504000,2,,,,,
8501037:5,MOR,Morges,,46.511092,6.493964,381,,,0,8501037,5,,,,,
8501037:4,MOR,Morges,,46.511092,6.493964,381,,,0,8501037,4,,,,,
8501037:1,MOR,Morges,,46.511092,6.493964,381,,,0,8501037,1,,,,,
8501037:3,MOR,Morges,,46.511092,6.493964,381,,,0,8501037,3,,,,,
8501037:2,MOR,Morges,,46.511092,6.493964,381,,,0,8501037,2,,,,,
8504221:5,NE,Neuchâtel,,46.996723,6.935705,479,,,0,8504221,5,,NE,Neuenburg (CH),,
8504221:4,NE,Neuchâtel,,46.996723,6.935705,479,,,0,8504221,4,,NE,Neuenburg (CH),,
8504221:7,NE,Neuchâtel,,46.996723,6.935705,479,,,0,8504221,7,,NE,Neuenburg (CH),,
8504221:6,NE,Neuchâtel,,46.996723,6.935705,479,,,0,8504221,6,,NE,Neuenburg (CH),,
8504221:1,NE,Neuchâtel,,46.996723,6.935705,479,,,0,8504221,1,,NE,Neuenburg (CH),,
8504221:3,NE,Neuchâtel,,46.996723,6.935705,479,,,0,8504221,3,,NE,Neuenburg (CH),,
8504221:2,NE,Neuchâtel,,46.996723,6.935705,479,,,0,8504221,2,,NE,Neuenburg (CH),,
8504221:1B,NE,Neuchâtel,,46.996723,6.935705,479,,,0,8504221,1B,,NE,Neuenburg (CH),,
8501108:2,LSA,La Sarraz,,46.658777,6.517365,485,,,0,8501108,2,,,,,
8501108:1,LSA,La Sarraz,,46.658777,6.517365,485,,,0,8501108,1,,,,,
8503000:43/44,ZUE,Zürich HB,,47.378177,8.540192,408,,,0,8503000,43/44,,ZH,Zurich,Zurigo,Zürich
8504416:3,BGG,Brügg BE,,47.123629,7.278208,436,,,0,8504416,3,,,,,
8504416:2,BGG,Brügg BE,,47.123629,7.278208,436,,,0,8504416,2,,,,,
8501123:2,VTE,Villette VD,,46.495333,6.707284,387,,,0,8501123,2,,,,,
8501123:1,VTE,Villette VD,,46.495333,6.707284,387,,,0,8501123,1,,,,,
8505000:9BC,LZ,Luzern,,47.050170,8.310170,436,,,0,8505000,9BC,,Lucerna,Lucerne,,
8501112:Pl,CHV,Chavornay,,46.710077,6.568160,447,,,0,8501112,Pl,,,,,
8501047:1,STJ,Morges-St-Jean,,46.518190,6.508045,380,,,0,8501047,1,,,,,
8501047:2,STJ,Morges-St-Jean,,46.518190,6.508045,380,,,0,8501047,2,,,,,
8504023:4,ROM,Romont,,46.693502,6.911814,707,,,0,8504023,4,,,,,
8504023:6,ROM,Romont,,46.693502,6.911814,707,,,0,8504023,6,,,,,
8504023:1,ROM,Romont,,46.693502,6.911814,707,,,0,8504023,1,,,,,
8504023:3,ROM,Romont,,46.693502,6.911814,707,,,0,8504023,3,,,,,
8504023:2,ROM,Romont,,46.693502,6.911814,707,,,0,8504023,2,,,,,
8501104:2,DAY,Le Day,,46.717281,6.400513,787,,,0,8501104,2,,,,,
8501104:3,DAY,Le Day,,46.717281,6.400513,787,,,0,8501104,3,,,,,
8501104:1,DAY,Le Day,,46.717281,6.400513,787,,,0,8501104,1,,,,,
8504300:10AB,BI,Biel/Bienne,,47.132893,7.242908,437,,,0,8504300,10AB,,Biel,Bienne,,
8501121:1,PU,Pully,,46.510919,6.659462,422,,,0,8501121,1,,,,,
8501121:2,PU,Pully,,46.510919,6.659462,422,,,0,8501121,2,,,,,
8500218:1CD,OL,Olten,,47.351930,7.907688,396,,,0,8500218,1CD,,,,,
8516154:1,BNB,Bern Brünnen Westside,,46.943868,7.374681,558,,,0,8516154,1,,,,,
8516154:2,BNB,Bern Brünnen Westside,,46.943868,7.374681,558,,,0,8516154,2,,,,,
8501400:3,AIG,Aigle,,46.316845,6.963680,404,,,0,8501400,3,,,,,
8501400:2,AIG,Aigle,,46.316845,6.963680,404,,,0,8501400,2,,,,,
8501400:1,AIG,Aigle,,46.316845,6.963680,404,,,0,8501400,1,,,,,
8504018:1,ECU,Ecublens-Rue,,46.610418,6.811055,585,,,0,8504018,1,,,,,
8501157:1,SEN,Sentier-Orient,,46.605766,6.231395,1013,,,0,8501157,1,,,,,
8501400:11/12,AIG,Aigle,,46.316845,6.963680,404,,,0,8501400,11/12,,,,,
8501022:3,VSX,Versoix,,46.279716,6.165746,388,,,0,8501022,3,,,,,
8501022:2,VSX,Versoix,,46.279716,6.165746,388,,,0,8501022,2,,,,,
8501022:1,VSX,Versoix,,46.279716,6.165746,388,,,0,8501022,1,,,,,
8501400:15/16,AIG,Aigle,,46.316845,6.963680,404,,,0,8501400,15/16,,,,,
8504221:,NE,Neuchâtel,,46.996723,6.935705,479,,,0,8504221,,,NE,Neuenburg (CH),,
8507000:1CD,BN,Bern,,46.948825,7.439118,540,,,0,8507000,1CD,,Berna,Berne (CH),,
8501031:3,GLA,Gland,,46.419976,6.269137,415,,,0,8501031,3,,,,,
8501031:1,GLA,Gland,,46.419976,6.269137,415,,,0,8501031,1,,,,,
8501403:,SM,St-Maurice,,46.216364,7.002049,422,,,0,8501403,,,,,,
8501035:,ALL,Allaman,,46.475740,6.399703,422,,,0,8501035,,,,,,
8518771:2,BIBD,Biel/Bienne Bözingenfeld/Champ,,47.158389,7.294587,444,,,0,8518771,2,Biel/Bienne Bözingenfeld/Champs-de-Boujean,,,,
8518771:1,BIBD,Biel/Bienne Bözingenfeld/Champ,,47.158389,7.294587,444,,,0,8518771,1,Biel/Bienne Bözingenfeld/Champs-de-Boujean,,,,
8503000:34,ZUE,Zürich HB,,47.378177,8.540192,408,,,0,8503000,34,,ZH,Zurich,Zurigo,Zürich
8503000:33,ZUE,Zürich HB,,47.378177,8.540192,408,,,0,8503000,33,,ZH,Zurich,Zurigo,Zürich
8503000:32,ZUE,Zürich HB,,47.378177,8.540192,408,,,0,8503000,32,,ZH,Zurich,Zurigo,Zürich
8503000:31,ZUE,Zürich HB,,47.378177,8.540192,408,,,0,8503000,31,,ZH,Zurich,Zurigo,Zürich
8504300:9AB,BI,Biel/Bienne,,47.132893,7.242908,437,,,0,8504300,9AB,,Biel,Bienne,,
8505000:11B,LZ,Luzern,,47.050170,8.310170,436,,,0,8505000,11B,,Lucerna,Lucerne,,
8504025:3,CHE,Chénens,,46.749201,7.000432,722,,,0,8504025,3,,,,,
8504025:4,CHE,Chénens,,46.749201,7.000432,722,,,0,8504025,4,,,,,
8503088:,ZUSZ,Zürich HB SZU,,47.377431,8.539170,396,,,0,8503088,,,,,,
8504011:2,GRV,Grandvaux,,46.496942,6.722647,565,,,0,8504011,2,,,,,
8504011:3,GRV,Grandvaux,,46.496942,6.722647,565,,,0,8504011,3,,,,,
8501023:2,COP,Coppet,,46.317381,6.187832,394,,,0,8501023,2,,,,,
8501023:3,COP,Coppet,,46.317381,6.187832,394,,,0,8501023,3,,,,,
8501033:1,ROL,Rolle,,46.462736,6.336408,402,,,0,8501033,1,,,,,
8501033:2,ROL,Rolle,,46.462736,6.336408,402,,,0,8501033,2,,,,,
8500218:4,OL,Olten,,47.351930,7.907688,396,,,0,8500218,4,,,,,
8500218:7,OL,Olten,,47.351930,7.907688,396,,,0,8500218,7,,,,,
8500218:1,OL,Olten,,47.351930,7.907688,396,,,0,8500218,1,,,,,
8500218:3,OL,Olten,,47.351930,7.907688,396,,,0,8500218,3,,,,,
8500218:2,OL,Olten,,47.351930,7.907688,396,,,0,8500218,2,,,,,
8500218:9,OL,Olten,,47.351930,7.907688,396,,,0,8500218,9,,,,,
8500218:8,OL,Olten,,47.351930,7.907688,396,,,0,8500218,8,,,,,
8504316:,LOC,Le Locle,,47.057855,6.746153,946,,,0,8504316,,,,,,
8501108:,LSA,La Sarraz,,46.658777,6.517365,485,,,0,8501108,,,,,,
8504100:5,FRI,Fribourg/Freiburg,,46.803268,7.151023,610,,,0,8504100,5,,Freiburg (CH),Fribourg,Friburgo,
8504100:4,FRI,Fribourg/Freiburg,,46.803268,7.151023,610,,,0,8504100,4,,Freiburg (CH),Fribourg,Friburgo,
8504100:1,FRI,Fribourg/Freiburg,,46.803268,7.151023,610,,,0,8504100,1,,Freiburg (CH),Fribourg,Friburgo,
8504100:3,FRI,Fribourg/Freiburg,,46.803268,7.151023,610,,,0,8504100,3,,Freiburg (CH),Fribourg,Friburgo,
8504100:2,FRI,Fribourg/Freiburg,,46.803268,7.151023,610,,,0,8504100,2,,Freiburg (CH),Fribourg,Friburgo,
8501042:1,ETOY,Etoy,,46.475160,6.427139,406,,,0,8501042,1,,,,,
8501042:2,ETOY,Etoy,,46.475160,6.427139,406,,,0,8501042,2,,,,,
8507000:13C,BN,Bern,,46.948825,7.439118,540,,,0,8507000,13C,,Berna,Berne (CH),,
8507000:13A,BN,Bern,,46.948825,7.439118,540,,,0,8507000,13A,,Berna,Berne (CH),,
8504221:6B,NE,Neuchâtel,,46.996723,6.935705,479,,,0,8504221,6B,,NE,Neuenburg (CH),,
8504221:6C,NE,Neuchâtel,,46.996723,6.935705,479,,,0,8504221,6C,,NE,Neuenburg (CH),,
8503008:1,ZAF,Zürich Affoltern,,47.420913,8.508565,456,,,0,8503008,1,,ZAF,,,
8503008:2,ZAF,Zürich Affoltern,,47.420913,8.508565,456,,,0,8503008,2,,ZAF,,,
8771500,PONF,Pontarlier (F),,46.917063,6.345052,837,,,0,,,,,,,
8771513,FRAS,Frasne,,46.857749,6.157892,0,,,0,,,,,,,
8501303:3,VIL,Villeneuve,,46.398366,6.926999,375,,,0,8501303,3,,,,,
8501303:2,VIL,Villeneuve,,46.398366,6.926999,375,,,0,8501303,2,,,,,
8501303:1,VIL,Villeneuve,,46.398366,6.926999,375,,,0,8501303,1,,,,,
8508051:2,BNFE,Bern Felsenau,,46.968497,7.444243,534,,,0,8508051,2,,,,,
8508051:1,BNFE,Bern Felsenau,,46.968497,7.444243,534,,,0,8508051,1,,,,,
8500218:,OL,Olten,,47.351930,7.907688,396,,,0,8500218,,,,,,
8504300:11,BI,Biel/Bienne,,47.132893,7.242908,437,,,0,8504300,11,,Biel,Bienne,,
8504300:10,BI,Biel/Bienne,,47.132893,7.242908,437,,,0,8504300,10,,Biel,Bienne,,
8504300:2CD,BI,Biel/Bienne,,47.132893,7.242908,437,,,0,8504300,2CD,,Biel,Bienne,,
8501200:1,VV,Vevey,,46.462998,6.843449,386,,,0,8501200,1,,,,,
8501200:3,VV,Vevey,,46.462998,6.843449,386,,,0,8501200,3,,,,,
8501200:5,VV,Vevey,,46.462998,6.843449,386,,,0,8501200,5,,,,,
8501200:4,VV,Vevey,,46.462998,6.843449,386,,,0,8501200,4,,,,,
8501200:7,VV,Vevey,,46.462998,6.843449,386,,,0,8501200,7,,,,,
8501200:6,VV,Vevey,,46.462998,6.843449,386,,,0,8501200,6,,,,,
8501500:50,MA,Martigny,,46.105828,7.079122,467,,,0,8501500,50,,,,,
8500010:5AB,BS,Basel SBB,,47.547405,7.589551,277,,,0,8500010,5AB,,Basilea FFS,Basle SBB,Bâle CFF,
8504314:4,CF,La Chaux-de-Fonds,,47.097799,6.826028,994,,,0,8504314,4,,CF,,,
8504314:5,CF,La Chaux-de-Fonds,,47.097799,6.826028,994,,,0,8504314,5,,CF,,,
8504314:6,CF,La Chaux-de-Fonds,,47.097799,6.826028,994,,,0,8504314,6,,CF,,,
8504314:1,CF,La Chaux-de-Fonds,,47.097799,6.826028,994,,,0,8504314,1,,CF,,,
8504314:2,CF,La Chaux-de-Fonds,,47.097799,6.826028,994,,,0,8504314,2,,CF,,,
8504314:3,CF,La Chaux-de-Fonds,,47.097799,6.826028,994,,,0,8504314,3,,CF,,,
8504003:2,BOSS,Bossière,,46.509738,6.699324,524,,,0,8504003,2,,,,,
8504003:1,BOSS,Bossière,,46.509738,6.699324,524,,,0,8504003,1,,,,,
8504013:1,CHX,Chexbres-Village,,46.481053,6.778542,560,,,0,8504013,1,,,,,
8501020:1,CHY,Chambésy,,46.242377,6.147339,389,,,0,8501020,1,,,,,
8500105:2,MOU,Moutier,,47.280667,7.381039,529,,,0,8500105,2,,,,,
8500105:4,MOU,Moutier,,47.280667,7.381039,529,,,0,8500105,4,,,,,
8500105:5,MOU,Moutier,,47.280667,7.381039,529,,,0,8500105,5,,,,,
8501030:2,NY,Nyon,,46.384407,6.235974,406,,,0,8501030,2,,,,,
8501030:3,NY,Nyon,,46.384407,6.235974,406,,,0,8501030,3,,,,,
8501030:1,NY,Nyon,,46.384407,6.235974,406,,,0,8501030,1,,,,,
8503020:3,ZHDB,Zürich Hardbrücke,,47.385195,8.517106,415,,,0,8503020,3,,ZHDB,,,
8503020:2,ZHDB,Zürich Hardbrücke,,47.385195,8.517106,415,,,0,8503020,2,,ZHDB,,,
8503020:1,ZHDB,Zürich Hardbrücke,,47.385195,8.517106,415,,,0,8503020,1,,ZHDB,,,
8503020:4,ZHDB,Zürich Hardbrücke,,47.385195,8.517106,415,,,0,8503020,4,,ZHDB,,,
8505000:11BC,LZ,Luzern,,47.050170,8.310170,436,,,0,8505000,11BC,,Lucerna,Lucerne,,
8504100:5CD,FRI,Fribourg/Freiburg,,46.803268,7.151023,610,,,0,8504100,5CD,,Freiburg (CH),Fribourg,Friburgo,
8507000:1,BN,Bern,,46.948825,7.439118,540,,,0,8507000,1,,Berna,Berne (CH),,
8507000:3,BN,Bern,,46.948825,7.439118,540,,,0,8507000,3,,Berna,Berne (CH),,
8507000:2,BN,Bern,,46.948825,7.439118,540,,,0,8507000,2,,Berna,Berne (CH),,
8507000:5,BN,Bern,,46.948825,7.439118,540,,,0,8507000,5,,Berna,Berne (CH),,
8507000:4,BN,Bern,,46.948825,7.439118,540,,,0,8507000,4,,Berna,Berne (CH),,
8507000:7,BN,Bern,,46.948825,7.439118,540,,,0,8507000,7,,Berna,Berne (CH),,
8507000:6,BN,Bern,,46.948825,7.439118,540,,,0,8507000,6,,Berna,Berne (CH),,
8507000:9,BN,Bern,,46.948825,7.439118,540,,,0,8507000,9,,Berna,Berne (CH),,
8507000:8,BN,Bern,,46.948825,7.439118,540,,,0,8507000,8,,Berna,Berne (CH),,
8504106:2,BNBS,Bern Bümpliz Süd,,46.937482,7.395229,562,,,0,8504106,2,,,,,
8504106:1,BNBS,Bern Bümpliz Süd,,46.937482,7.395229,562,,,0,8504106,1,,,,,
8501026:,GEAP,Genève-Aéroport,,46.232530,6.111985,424,,,0,8501026,,,Geneva Airport,Genf Flughafen,Ginevra Aeroporto,
8504226:2,NV,La Neuveville,,47.062825,7.095219,434,,,0,8504226,2,,,,,
8504226:1,NV,La Neuveville,,47.062825,7.095219,434,,,0,8504226,1,,,,,
8501400:,AIG,Aigle,,46.316845,6.963680,404,,,0,8501400,,,,,,
8504012:3,PUI,Puidoux-Chexbres,,46.493833,6.765686,618,,,0,8504012,3,,,,,
8504012:2,PUI,Puidoux-Chexbres,,46.493833,6.765686,618,,,0,8504012,2,,,,,
8503000:15,ZUE,Zürich HB,,47.378177,8.540192,408,,,0,8503000,15,,ZH,Zurich,Zurigo,Zürich
8503000:14,ZUE,Zürich HB,,47.378177,8.540192,408,,,0,8503000,14,,ZH,Zurich,Zurigo,Zürich
8503000:17,ZUE,Zürich HB,,47.378177,8.540192,408,,,0,8503000,17,,ZH,Zurich,Zurigo,Zürich
8503000:16,ZUE,Zürich HB,,47.378177,8.540192,408,,,0,8503000,16,,ZH,Zurich,Zurigo,Zürich
8503000:13,ZUE,Zürich HB,,47.378177,8.540192,408,,,0,8503000,13,,ZH,Zurich,Zurigo,Zürich
8504030:1,VG,Villars-sur-Glâne,,46.789826,7.116388,639,,,0,8504030,1,,,,,
8504030:2,VG,Villars-sur-Glâne,,46.789826,7.116388,639,,,0,8504030,2,,,,,
8500090:3,BAD,Basel Bad Bf,,47.568147,7.607284,263,,,0,8500090,3,,,,,
8500090:2,BAD,Basel Bad Bf,,47.568147,7.607284,263,,,0,8500090,2,,,,,
8500090:7,BAD,Basel Bad Bf,,47.568147,7.607284,263,,,0,8500090,7,,,,,
8500090:6,BAD,Basel Bad Bf,,47.568147,7.607284,263,,,0,8500090,6,,,,,
8500090:5,BAD,Basel Bad Bf,,47.568147,7.607284,263,,,0,8500090,5,,,,,
8500090:4,BAD,Basel Bad Bf,,47.568147,7.607284,263,,,0,8500090,4,,,,,
8500090:9,BAD,Basel Bad Bf,,47.568147,7.607284,263,,,0,8500090,9,,,,,
8500090:8,BAD,Basel Bad Bf,,47.568147,7.607284,263,,,0,8500090,8,,,,,
8516161:5,BNWD,Bern Wankdorf,,46.967820,7.465464,549,,,0,8516161,5,,Wankdorf,,,
8516161:4,BNWD,Bern Wankdorf,,46.967820,7.465464,549,,,0,8516161,4,,Wankdorf,,,
8516161:1,BNWD,Bern Wankdorf,,46.967820,7.465464,549,,,0,8516161,1,,Wankdorf,,,
8516161:3,BNWD,Bern Wankdorf,,46.967820,7.465464,549,,,0,8516161,3,,Wankdorf,,,
8516161:2,BNWD,Bern Wankdorf,,46.967820,7.465464,549,,,0,8516161,2,,Wankdorf,,,
8504144:1,CHP,Yverdon-Champ Pittet,,46.782140,6.662317,435,,,0,8504144,1,,,,,
8504100:4CD,FRI,Fribourg/Freiburg,,46.803268,7.151023,610,,,0,8504100,4CD,,Freiburg (CH),Fribourg,Friburgo,
8771861,MORT,Morteau,,47.053732,6.604876,0,,,0,,,,,,,
8500010:9AB,BS,Basel SBB,,47.547405,7.589551,277,,,0,8500010,9AB,,Basilea FFS,Basle SBB,Bâle CFF,
8501026:3,GEAP,Genève-Aéroport,,46.232530,6.111985,424,,,0,8501026,3,,Geneva Airport,Genf Flughafen,Ginevra Aeroporto,
8501026:2,GEAP,Genève-Aéroport,,46.232530,6.111985,424,,,0,8501026,2,,Geneva Airport,Genf Flughafen,Ginevra Aeroporto,
8501026:1,GEAP,Genève-Aéroport,,46.232530,6.111985,424,,,0,8501026,1,,Geneva Airport,Genf Flughafen,Ginevra Aeroporto,
8501026:4,GEAP,Genève-Aéroport,,46.232530,6.111985,424,,,0,8501026,4,,Geneva Airport,Genf Flughafen,Ginevra Aeroporto,
8504200:2,YV,Yverdon-les-Bains,,46.781877,6.641145,435,,,0,8504200,2,,Yverdon,,,
8504200:3,YV,Yverdon-les-Bains,,46.781877,6.641145,435,,,0,8504200,3,,Yverdon,,,
8504200:1,YV,Yverdon-les-Bains,,46.781877,6.641145,435,,,0,8504200,1,,Yverdon,,,
8501120:5,LS,Lausanne,,46.516779,6.629093,447,,,0,8501120,5,,LS,Losanna,,
8501120:6,LS,Lausanne,,46.516779,6.629093,447,,,0,8501120,6,,LS,Losanna,,
8504014:3AB,PAL,Palézieux,,46.542753,6.837877,669,,,0,8504014,3AB,,,,,
8516283:1,GESE,Genève-Sécheron,,46.222436,6.144559,390,,,0,8516283,1,,,,,
8504300:1CD,BI,Biel/Bienne,,47.132893,7.242908,437,,,0,8504300,1CD,,Biel,Bienne,,
8519133:1,FRPO,Fribourg/Freiburg Poya,,46.814703,7.155430,609,,,0,8519133,1,,,,,
8519133:2,FRPO,Fribourg/Freiburg Poya,,46.814703,7.155430,609,,,0,8519133,2,,,,,
8501111:1,ESP,Essert-Pittet,,46.727660,6.580657,438,,,0,8501111,1,,,,,
8501111:2,ESP,Essert-Pittet,,46.727660,6.580657,438,,,0,8501111,2,,,,,
8501105:2,BRT,Bretonnières,,46.715046,6.474731,673,,,0,8501105,2,,,,,
8501105:1,BRT,Bretonnières,,46.715046,6.474731,673,,,0,8501105,1,,,,,
8504181:2,GIV,Givisiez,,46.816711,7.125333,617,,,0,8504181,2,,,,,
8500010,BS,Basel SBB,,47.547405,7.589551,277,,,1,,,,Basilea FFS,Basle SBB,Bâle CFF,
8500016,BSSJ,Basel St. Johann,,47.570296,7.572512,266,,,1,,,,,,,
8500090,BAD,Basel Bad Bf,,47.568147,7.607284,263,,,1,,,,,,,
8500105,MOU,Moutier,,47.280667,7.381039,529,,,1,,,,,,,
8500109,DMT,Delémont,,47.362001,7.350053,413,,,1,,,,Delsberg,,,
8500125,CG,Courgenay,,47.405218,7.124191,488,,,1,,,,,,,
8500126,POR,Porrentruy,,47.420910,7.080074,423,,,1,,,,,,,
8500136,BSDH,Basel Dreispitz,,47.537862,7.608941,284,,,1,,,,,,,
8500175,CREB,Le Creux-des-Biches,,47.203460,6.940645,1013,,,0,,,,,,,
8500176,BOEC,Le Boéchet,,47.194240,6.922098,1033,,,0,,,,,,,
8500177,BOIS,Les Bois,,47.176897,6.906172,1029,,,0,,,,,,,
8500178,FER,La Ferrière,,47.142688,6.894529,1005,,,0,,,,,,,
8500179,CIB,La Cibourg,,47.122118,6.883655,1036,,,0,,,,,,,
8500180,LARG,La Large-Journée,,47.161255,6.896700,1016,,,0,,,,,,,
8500181,CHXA,La Chaux-d'Abel,,47.152719,6.898712,994,,,0,,,,,,,
8500184,CFES,La Chaux-de-Fonds-Est,,47.103480,6.837161,1012,,,0,,,,,,,
8500217,OLH,Olten Hammer,,47.348552,7.897706,403,,,1,,,,,,,
8500218,OL,Olten,,47.351930,7.907688,396,,,1,,,,,,,
8504015:1,VVFU,Vevey-Funi,,46.468272,6.835437,388,,,0,8504015,1,,,,,
8501001,LP,La Plaine,,46.178660,5.999996,356,,,1,,,,,,,
8501003,SY,Satigny,,46.214221,6.037509,414,,,1,,,,,,,
8501006,VM,Meyrin,,46.222332,6.076912,434,,,1,,,,,,,
8501007,COI,Vernier,,46.220710,6.093894,428,,,1,,,,,,,
8501008,GE,Genève,,46.210203,6.142452,391,,,1,,,,Geneva,Genf,Ginevra,
8501011,TUI,Les Tuileries,,46.249944,6.147340,389,,,1,,,,,,,
8501012,CRGD,Creux-de-Genthod,,46.263760,6.161320,386,,,1,,,,,,,
8501013,PTC,Pont-Céard,,46.287392,6.162672,393,,,1,,,,,,,
8501014,MIES,Mies,,46.299876,6.169570,394,,,1,,,,,,,
8501015,TAN,Tannay,,46.307635,6.181124,392,,,1,,,,,,,
8501020,CHY,Chambésy,,46.242377,6.147339,389,,,1,,,,,,,
8501021,GDBE,Genthod-Bellevue,,46.256731,6.153963,385,,,1,,,,,,,
8501022,VSX,Versoix,,46.279716,6.165746,388,,,1,,,,,,,
8501023,COP,Coppet,,46.317381,6.187832,394,,,1,,,,,,,
8501026,GEAP,Genève-Aéroport,,46.232530,6.111985,424,,,1,,,,Geneva Airport,Genf Flughafen,Ginevra Aeroporto,
8501030,NY,Nyon,,46.384407,6.235974,406,,,1,,,,,,,
8501031,GLA,Gland,,46.419976,6.269137,415,,,1,,,,,,,
8501033,ROL,Rolle,,46.462736,6.336408,402,,,1,,,,,,,
8501035,ALL,Allaman,,46.475740,6.399703,422,,,1,,,,,,,
8501036,STP,St-Prex,,46.482305,6.455904,395,,,1,,,,,,,
8501037,MOR,Morges,,46.511092,6.493964,381,,,1,,,,,,,
8501042,ETOY,Etoy,,46.475160,6.427139,406,,,1,,,,,,,
8501045,DEN,Denges-Echandens,,46.529121,6.540508,397,,,1,,,,,,,
8501047,STJ,Morges-St-Jean,,46.518190,6.508045,380,,,1,,,,,,,
8501048,LON,Lonay-Préverenges,,46.523123,6.519546,387,,,1,,,,,,,
8501053,VUAP,La Vuarpillière,,46.398907,6.217264,463,,,0,,,,,,,
8501054,GOT,La Gottaz,,46.506542,6.484467,398,,,0,,,,,,,
8501055,PRAL,Les Pralies,,46.451166,6.126882,1176,,,0,,,,,,,
8501056,SUCH,Sus-Châtel,,46.438477,6.205870,802,,,0,,,,,,,
8501057,CHMO,La Chèvrerie-Monteret,,46.448461,6.183516,970,,,0,,,,,,,
8501058,JOCL,La Joy-Clinique,,46.446332,6.216767,668,,,0,,,,,,,
8501059,PLAN,Les Plantaz,,46.391143,6.229037,420,,,0,,,,,,,
8501060,CURE,La Cure,,46.465130,6.073578,1155,,,0,,,,,,,
8501061,GIVR,La Givrine,,46.454586,6.111452,1208,,,0,,,,,,,
8501062,STCE,St-Cergue,,46.448598,6.160370,1047,,,0,,,,,,,
8501089,VIAB,Villars-Bozon,,46.610449,6.402359,662,,,0,,,,,,,
8501091,VUF,Vufflens-le-Château,,46.524799,6.473183,471,,,0,,,,,,,
8501092,BUSM,Bussy-Chardonney,,46.526773,6.446519,506,,,0,,,,,,,
8501098,MORI,Montricher,,46.596320,6.393050,676,,,0,,,,,,,
8501099,ISLE,L'Isle,,46.617258,6.411184,666,,,0,,,,,,,
8501100,PT,Le Pont,,46.668677,6.324657,1008,,,0,,,,,,,
8501103,VAL,Vallorbe,,46.712398,6.370564,807,,,1,,,,,,,
8501104,DAY,Le Day,,46.717281,6.400513,787,,,1,,,,,,,
8501105,BRT,Bretonnières,,46.715046,6.474731,673,,,1,,,,,,,
8501108,LSA,La Sarraz,,46.658777,6.517365,485,,,1,,,,,,,
8501112,CHV,Chavornay,,46.710077,6.568160,447,,,1,,,,,,,
8501114,ECL,Eclépens,,46.657185,6.552420,455,,,1,,,,,,,
8501115,COS,Cossonay-Penthalaz,,46.606003,6.523683,428,,,1,,,,,,,
8501116,VU,Vufflens-la-Ville,,46.576237,6.530762,406,,,1,,,,,,,
8501117,BY,Bussigny,,46.547580,6.551819,407,,,1,,,,,,,
8501118,REN,Renens VD,,46.537029,6.578938,416,,,1,,,,,,,
8501120,LS,Lausanne,,46.516779,6.629093,447,,,1,,,,LS,Losanna,,
8501121,PU,Pully,,46.510919,6.659462,422,,,1,,,,,,,
8501122,LTY,Lutry,,46.503779,6.690611,402,,,1,,,,,,,
8501124,CU,Cully,,46.488551,6.727147,391,,,1,,,,,,,
8501127,STSA,St-Saphorin,,46.472586,6.797030,376,,,1,,,,,,,
8501151,CHB,Les Charbonnières,,46.664293,6.317090,1025,,,0,,,,,,,
8501154,EDR,Les Esserts-de-Rive,,46.632027,6.260519,1040,,,0,,,,,,,
8501159,BRA,Le Brassus,,46.585781,6.214291,1022,,,1,,,,,,,
8501160,LSCH,Lausanne-Chauderon,,46.523226,6.626064,471,,,0,,,,,,,
8501161,MTET,Montétan,,46.530330,6.613183,502,,,0,,,,,,,
8501162,UPRI,Union-Prilly,,46.534713,6.609857,508,,,0,,,,,,,
8501163,PRCH,Prilly-Chasseur,,46.539644,6.607435,525,,,0,,,,,,,
8501166,ROSL,Romanel-sur-Lausanne,,46.562462,6.603171,591,,,0,,,,,,,
8501167,LELX,Le Lussex,,46.556868,6.600910,592,,,0,,,,,,,
8501169,CHES,Cheseaux,,46.584343,6.605964,607,,,0,,,,,,,
8501170,BEAI,Bel-Air LEB,,46.578673,6.605529,605,,,0,,,,,,,
8501171,ETA,Etagnières,,46.600048,6.613030,631,,,0,,,,,,,
8501172,ASNS,Assens,,46.613147,6.620532,625,,,0,,,,,,,
8501173,ECH,Echallens,,46.639501,6.632540,617,,,0,,,,,,,
8501174,SROC,Sur Roche,,46.640445,6.638926,625,,,0,,,,,,,
8501175,SUGN,Sugnens,,46.654845,6.665757,648,,,0,,,,,,,
8501176,FEY,Fey,,46.674316,6.685081,647,,,0,,,,,,,
8501177,BERC,Bercher,,46.692879,6.703648,627,,,0,,,,,,,
8501178,GRES,Grésaley,,46.643167,6.642151,620,,,0,,,,,,,
8501179,PTD,Pont-de-Drapel,,46.327394,7.000881,616,,,0,,,,,,,
8501181,LSFL,Lausanne-Flon,,46.520791,6.630349,479,,,0,,,,,,,
8501191,ORBE,Orbe,,46.724389,6.530109,473,,,0,,,,,,,
8502167:2,REIN,Reinach AG Nord,,47.258031,8.180882,523,,,0,8502167,2,,,,,
8501194,GRAN,Les Granges (Orbe),,46.720962,6.541482,445,,,0,,,,,,,
8502167:1,REIN,Reinach AG Nord,,47.258031,8.180882,523,,,0,8502167,1,,,,,
8501198,PALZ,La Palaz,,46.476723,7.142085,980,,,0,,,,,,,
8501199,ROUL,La Roulaz,,46.337447,7.004424,1020,,,0,,,,,,,
8501200,VV,Vevey,,46.462998,6.843449,386,,,1,,,,,,,
8501201,TOUR,La Tour-de-Peilz,,46.455444,6.859530,390,,,1,,,,,,,
8501202,BURI,Burier,,46.447877,6.877115,396,,,1,,,,,,,
8501203,CL,Clarens,,46.442732,6.895777,400,,,1,,,,,,,
8501207,MOLY,"Lausanne, Montelly",,46.521822,6.613560,441,,,0,,,,,,,
8501208,PROV,"Lausanne, Provence",,46.523383,6.608102,427,,,0,,,,,,,
8501209,MALY,"Lausanne, Malley",,46.524212,6.603306,425,,,0,,,,,,,
8501210,BDON,"Lausanne, Bourdonnette",,46.523266,6.589805,390,,,0,,,,,,,
8501211,UNDO,"Chavannes-p.-R., UNIL-Dorigny",,46.524217,6.584707,388,,,0,,,,,,,
8501212,MOUI,"Chavannes-p.-R., UNIL-Mouline",,46.524992,6.578895,385,,,0,,,,,,,
8501213,UNSO,"Ecublens VD, UNIL-Sorge",,46.522451,6.573579,391,,,0,,,,,,,
8501214,EPFL,"Ecublens VD, EPFL",,46.522196,6.566141,396,,,0,,,,,,,
8501215,BAGE,"Ecublens VD, Bassenges",,46.524586,6.564591,398,,,0,,,,,,,
8501216,CERI,"Ecublens VD, Cerisaie",,46.527750,6.566547,396,,,0,,,,,,,
8501217,CROC,"Chavannes-près-Renens, Crochy",,46.532715,6.569973,403,,,0,,,,,,,
8501218,EPEX,"Ecublens VD, Epenex",,46.537717,6.573582,417,,,0,,,,,,,
8501229,MTHP,Monthey-En Place,,46.260230,6.945927,418,,,0,,,,,,,
8501300,MX,Montreux,,46.435875,6.910432,395,,,1,,,,MX,,,
8501303,VIL,Villeneuve,,46.398366,6.926999,375,,,1,,,,,,,
8501304,ROC,Roche VD,,46.358686,6.927049,380,,,1,,,,,,,
8501360,PLCH,Montreux-Les Planches,,46.433092,6.917563,450,,,0,,,,,,,
8501362,VALM,Valmont,,46.428549,6.929303,637,,,0,,,,,,,
8501380,CGE,Montreux-Collège,,46.436101,6.912720,426,,,0,,,,,,,
8501381,VUAR,Vuarennes,,46.439116,6.910973,442,,,0,,,,,,,
8501421,MTH,Monthey,,46.255646,6.955228,406,,,1,,,,,,,
8501426,BOU,Bouveret,,46.385810,6.853241,374,,,1,,,,,,,
8501428,STGI,St-Gingolph (Suisse),,46.391960,6.805890,390,,,1,,,,,,,
8501446,VIGO,Villars-sur-Ollon Golf,,46.309119,7.075501,1604,,,0,,,,,,,
8501452,STGR,St-Triphon-Gare,,46.278223,6.973735,405,,,0,,,,,,,
8501459,STVI,St-Triphon-Village,,46.302070,6.975802,405,,,0,,,,,,,
8501461,OLLO,Ollon,,46.296823,6.993108,468,,,0,,,,,,,
8501463,MTHV,Monthey-Ville,,46.254093,6.947513,420,,,0,,,,,,,
8501466,CRYV,Champéry-Village,,46.181472,6.874855,1043,,,0,,,,,,,
8501468,AIGT,Aigle-Dépôt ASD,,46.316357,6.980562,440,,,0,,,,,,,
8501572,MABO,Martigny-Bourg,,46.092435,7.068479,484,,,0,,,,,,,
8501573,MACR,Martigny-Croix,,46.086564,7.058616,503,,,0,,,,,,,
8503000,ZUE,Zürich HB,,47.378177,8.540192,408,,,1,,,,ZH,Zurich,Zurigo,Zürich
8503001,ZAS,Zürich Altstetten,,47.391481,8.488940,399,,,1,,,,West Link,ZAS,,
8503003,ZSTH,Zürich Stadelhofen,,47.366611,8.548466,411,,,1,,,,ZSTH,,,
8503004,ZTB,Zürich Tiefenbrunnen,,47.350124,8.561372,408,,,1,,,,ZTB,,,
8503006,ZOER,Zürich Oerlikon,,47.411529,8.544115,442,,,1,,,,ZOER,,,
8503007,ZSEB,Zürich Seebach,,47.418747,8.544636,442,,,1,,,,ZSEB,,,
8503008,ZAF,Zürich Affoltern,,47.420913,8.508565,456,,,1,,,,ZAF,,,
8503009,ZWOL,Zürich Wollishofen,,47.347440,8.533588,409,,,1,,,,ZWOL,,,
8503010,ZEN,Zürich Enge,,47.364099,8.530805,409,,,1,,,,ZEN,,,
8503011,ZWIE,Zürich Wiedikon,,47.371472,8.523462,405,,,1,,,,ZWIE,,,
8503015,ZWIP,Zürich Wipkingen,,47.393032,8.529359,425,,,1,,,,ZWIP,,,
8503016,ZFH,Zürich Flughafen,,47.450383,8.562386,430,,,1,,,,Zurich Airport,Zurigo Aeroporto,,
8503020,ZHDB,Zürich Hardbrücke,,47.385195,8.517106,415,,,1,,,,ZHDB,,,
8504100:3AB,FRI,Fribourg/Freiburg,,46.803268,7.151023,610,,,0,8504100,3AB,,Freiburg (CH),Fribourg,Friburgo,
8503051,ZBZ,Zürich Binz,,47.362632,8.518424,421,,,0,,,,,,,
8503052,FRIB,Zürich Friesenberg,,47.364781,8.507942,446,,,0,,,,,,,
8503053,SHF,Zürich Schweighof,,47.364988,8.503047,459,,,0,,,,,,,
8503054,TRLI,Zürich Triemli,,47.364997,8.495197,485,,,0,,,,,,,
8503069,ZUER,Zürich Rehalp,,47.351016,8.583204,524,,,0,,,,,,,
8503086,ZBRU,Zürich Brunau,,47.352124,8.526232,422,,,0,,,,,,,
8503087,ZSAA,Zürich Saalsporthalle,,47.357407,8.522143,420,,,0,,,,,,,
8503088,ZUSZ,Zürich HB SZU,,47.377431,8.539170,396,,,1,,,,,,,
8503090,ZSEL,Zürich Selnau,,47.372938,8.532033,414,,,0,,,,,,,
8503091,ZGH,Zürich Giesshübel,,47.362456,8.521849,418,,,0,,,,,,,
8503093,ZMA,Zürich Manegg,,47.338378,8.519679,431,,,0,,,,,,,
8503094,ZLE,Zürich Leimbach,,47.334601,8.519603,435,,,0,,,,,,,
8504000,PUN,Pully-Nord,,46.514670,6.657988,473,,,1,,,,,,,
8504010,CVN,La Conversion,,46.513081,6.678325,501,,,1,,,,,,,
8504011,GRV,Grandvaux,,46.496942,6.722647,565,,,1,,,,,,,
8504012,PUI,Puidoux-Chexbres,,46.493833,6.765686,618,,,1,,,,,,,
8504013,CHX,Chexbres-Village,,46.481053,6.778542,560,,,1,,,,,,,
8504014,PAL,Palézieux,,46.542753,6.837877,669,,,1,,,,,,,
8504015,VVFU,Vevey-Funi,,46.468272,6.835437,388,,,1,,,,,,,
8504016,PALV,Palézieux-Village,,46.557239,6.828340,634,,,0,,,,,,,
8504017,CHAT,Châtillens,,46.570528,6.815484,602,,,1,,,,,,,
8504018,ECU,Ecublens-Rue,,46.610418,6.811055,585,,,1,,,,,,,
8504019,BZ,Bressonnaz,,46.653146,6.791262,533,,,0,,,,,,,
8504020,OR,Oron,,46.572534,6.837102,700,,,1,,,,,,,
8504021,VD,Vauderens,,46.621449,6.850031,757,,,1,,,,,,,
8504022,SIV,Siviriez,,46.656316,6.883801,737,,,1,,,,,,,
8504023,ROM,Romont,,46.693502,6.911814,707,,,1,,,,,,,
8504062,CHSD,Châtel-St-Denis,,46.526138,6.898745,807,,,0,,,,,,,
8504077,GRY,Gruyères,,46.582608,7.073255,746,,,0,,,,,,,
8504086,BUL,Bulle,,46.618189,7.055037,771,,,1,,,,,,,
8504088,BROV,Broc-Village,,46.604052,7.098744,719,,,0,,,,,,,
8504089,BROF,Broc-Fabrique,,46.605423,7.109333,689,,,0,,,,,,,
8504100,FRI,Fribourg/Freiburg,,46.803268,7.151023,610,,,1,,,,Freiburg (CH),Fribourg,Friburgo,
8504106,BNBS,Bern Bümpliz Süd,,46.937482,7.395229,562,,,1,,,,,,,
8504108,BNAS,Bern Europaplatz,,46.944206,7.406112,551,,,1,,,,Bern Europaplatz Nord,,,
8504120,MD,Moudon,,46.668052,6.802504,510,,,0,,,,,,,
8504121,LUC,Lucens,,46.707767,6.842143,439,,,0,,,,,,,
8504122,GM,Granges-Marnand,,46.758836,6.894289,469,,,1,,,,,,,
8504123,CN,Corcelles-Nord,,46.835253,6.960287,448,,,1,,,,,,,
8504124,DOP,Dompierre,,46.854399,6.985358,442,,,1,,,,,,,
8504125,DOM,Domdidier,,46.868505,7.011380,439,,,1,,,,,,,
8504130,YND,Yvonand,,46.800864,6.746686,434,,,1,,,,,,,
8504132,EST,Estavayer-le-Lac,,46.844497,6.842958,463,,,1,,,,,,,
8504133,CGY,Cugy FR,,46.816024,6.889162,469,,,1,,,,,,,
8504134,PAY,Payerne,,46.819639,6.939879,452,,,1,,,,,,,
8504135,CS,Corcelles-Sud,,46.828844,6.957185,451,,,0,,,,,,,
8504144,CHP,Yverdon-Champ Pittet,,46.782140,6.662317,435,,,1,,,,,,,
8504200,YV,Yverdon-les-Bains,,46.781877,6.641145,435,,,1,,,,Yverdon,,,
8504201,GRS,Grandson,,46.806270,6.641936,436,,,1,,,,,,,
8504220,NESE,Neuchâtel-Serrières,,46.983955,6.903358,475,,,1,,,,,,,
8504221,NE,Neuchâtel,,46.996723,6.935705,479,,,1,,,,NE,Neuenburg (CH),,
8504226,NV,La Neuveville,,47.062825,7.095219,434,,,1,,,,,,,
8504314,CF,La Chaux-de-Fonds,,47.097799,6.826028,994,,,1,,,,CF,,,
8504315,CRET,Le Crêt-du-Locle,,47.077595,6.785177,1014,,,1,,,,,,,
8504316,LOC,Le Locle,,47.057855,6.746153,946,,,1,,,,,,,
8504317,COL,Le Locle-Col-des-Roches,,47.049879,6.726068,917,,,1,,,,,,,
8504325,,Colombier NE Littorail,,46.965871,6.865419,440,,,0,,,,,,,
8504381,CFG,La Chaux-de-Fonds-Grenier,,47.099737,6.833699,1014,,,0,,,,,,,
8501509:3,SIE,Sierre/Siders,,46.292115,7.532830,534,,,0,8501509,3,,,,,
8501509:1,SIE,Sierre/Siders,,46.292115,7.532830,534,,,0,8501509,1,,,,,
8504010:2,CVN,La Conversion,,46.513081,6.678325,501,,,0,8504010,2,,,,,
8504010:1,CVN,La Conversion,,46.513081,6.678325,501,,,0,8504010,1,,,,,
8507000,BN,Bern,,46.948825,7.439118,540,,,1,,,,Berna,Berne (CH),,
8507079,BNWE,Bern Weissenbühl,,46.935773,7.430018,550,,,1,,,,,,,
8507082,BNAH,Bern  Europaplatz,,46.943441,7.407465,551,,,1,,,,Bern Europaplatz Süd,,,
8504300:2AB,BI,Biel/Bienne,,47.132893,7.242908,437,,,0,8504300,2AB,,Biel,Bienne,,
8504200:,YV,Yverdon-les-Bains,,46.781877,6.641145,435,,,0,8504200,,,Yverdon,,,
8508050,BRBS,Bern RBS,,46.949491,7.439710,534,,,1,,,,,,,
8508051,BNFE,Bern Felsenau,,46.968497,7.444243,534,,,1,,,,,,,
8508052,BNTI,Bern Tiefenau,,46.972743,7.450196,531,,,1,,,,,,,
8501159:2,BRA,Le Brassus,,46.585781,6.214291,1022,,,0,8501159,2,,,,,
8504134:1,PAY,Payerne,,46.819639,6.939879,452,,,0,8504134,1,,,,,
8504134:2,PAY,Payerne,,46.819639,6.939879,452,,,0,8504134,2,,,,,
8504134:3,PAY,Payerne,,46.819639,6.939879,452,,,0,8504134,3,,,,,
8504134:4,PAY,Payerne,,46.819639,6.939879,452,,,0,8504134,4,,,,,
8504134:5,PAY,Payerne,,46.819639,6.939879,452,,,0,8504134,5,,,,,
8772319,LYD,Lyon-Part-Dieu,,45.760564,4.859990,0,,,0,,,,,,,
8504315:1,CRET,Le Crêt-du-Locle,,47.077595,6.785177,1014,,,0,8504315,1,,,,,
8504221:5CD,NE,Neuchâtel,,46.996723,6.935705,479,,,0,8504221,5CD,,NE,Neuenburg (CH),,
8503004:1,ZTB,Zürich Tiefenbrunnen,,47.350124,8.561372,408,,,0,8503004,1,,ZTB,,,
8500090:,BAD,Basel Bad Bf,,47.568147,7.607284,263,,,0,8500090,,,,,,
8501037:,MOR,Morges,,46.511092,6.493964,381,,,0,8501037,,,,,,
8503004:3,ZTB,Zürich Tiefenbrunnen,,47.350124,8.561372,408,,,0,8503004,3,,ZTB,,,
8500218:1BCD,OL,Olten,,47.351930,7.907688,396,,,0,8500218,1BCD,,,,,
8503004:2,ZTB,Zürich Tiefenbrunnen,,47.350124,8.561372,408,,,0,8503004,2,,ZTB,,,
8501120:70,LS,Lausanne,,46.516779,6.629093,447,,,0,8501120,70,,LS,Losanna,,
8774500,BELG,Bellegarde (Ain),,46.110918,5.825962,350,,,0,,,,,,,
8774538,POCH,Pougny-Chancy,,46.146085,5.961156,341,,,0,,,,,,,
8501117:3,BY,Bussigny,,46.547580,6.551819,407,,,0,8501117,3,,,,,
8501117:1,BY,Bussigny,,46.547580,6.551819,407,,,0,8501117,1,,,,,
8504200:3D,YV,Yverdon-les-Bains,,46.781877,6.641145,435,,,0,8504200,3D,,Yverdon,,,
8504108:3,BNAS,Bern Europaplatz,,46.944206,7.406112,551,,,0,8504108,3,,Bern Europaplatz Nord,,,
8504314:,CF,La Chaux-de-Fonds,,47.097799,6.826028,994,,,0,8504314,,,CF,,,
8516155,LAPR,Lancy-Pont-Rouge,,46.188898,6.125330,384,,,1,,,,,,,
8504221:2AB,NE,Neuchâtel,,46.996723,6.935705,479,,,0,8504221,2AB,,NE,Neuenburg (CH),,
8518452,PRMA,Prilly-Malley,,46.526690,6.602629,430,,,1,,,,,,,
8518771,BIBD,Biel/Bienne Bözingenfeld/Champ,,47.158389,7.294587,444,,,1,,,Biel/Bienne Bözingenfeld/Champs-de-Boujean,,,,
8501609:90,BR,Brig,,46.319422,7.988091,678,,,0,8501609,90,,BR,Brigue,,
8519133,FRPO,Fribourg/Freiburg Poya,,46.814703,7.155430,609,,,1,,,,,,,
8504182:2,BFV,Belfaux-Village,,46.821837,7.108844,588,,,0,8504182,2,,,,,
8504182:1,BFV,Belfaux-Village,,46.821837,7.108844,588,,,0,8504182,1,,,,,
8501112:3,CHV,Chavornay,,46.710077,6.568160,447,,,0,8501112,3,,,,,
8501112:2,CHV,Chavornay,,46.710077,6.568160,447,,,0,8501112,2,,,,,